stop_name,stop_id,stop_lat,stop_lon
Abrami h.,44678,47.31441,22.380114
Abrămuţ h.,44733,47.321026,22.255913
Aciliu h.,20830,45.81728,23.87632
Aciuţa h.,35859,46.294285,22.433708
Acâş Hm.,44408,47.526962,22.77624
Adjud,50811,46.10047,27.190994
Adjudu Vechi h.,50885,46.13216,27.168947
Adânca PM.,32998,44.921307,25.596418
Adămuş h.,33954,46.314484,24.237389
Aeroport H. Coanda T1,69989,44.569008,26.075308
Afumaţi h.,15017,44.031734,23.524702
Aghireş,32182,46.866035,23.278835
Aghireş h.,32209,46.873447,23.247463
Agigea Ecluză Hm.,81054,44.087452,28.624594
Agigea Nord,81016,44.124973,28.634615
Agârbiciu h.,33825,46.068707,24.189875
Aiud Hm.,31695,46.31254,23.73535
Alba Iulia,23038,46.05616,23.576138
Albeşti Târnava Hm.,31190,46.237663,24.855995
Alexandria,14518,43.963913,25.325808
Alexandria Nord h.,14506,43.974777,25.309057
Alexeni h.,71669,44.68695,26.70147
Aleşd,32508,47.04,22.35686
Aleşd h.,32481,47.03735,22.390266
Almaş h.,35782,46.29602,22.247879
Almăj h.,10835,44.437572,23.696318
Aluniş Mureş Hm.,42412,46.90037,24.824549
Aluniş Sălaj h.,41482,47.384457,23.27923
Amaradia,24575,44.983807,23.245153
Ampoiţa h.,27137,46.11139,23.491852
Andreneasa h.,40763,46.960114,25.031229
Andrieşeni h.,63260,47.51413,27.273968
Andrăşeşti Hm.,71774,44.58037,27.147657
Angheleşti h.,10251,44.32302,25.646402
Angheluş h.,42125,45.86479,25.887669
Anina,17015,45.088936,21.852716
Aninoasa Hm.,13227,44.958916,25.44219
Antestaţie Bărăbanţ h.,23014,46.101658,23.607174
Apa Hm.,41846,47.76817,23.187796
Apahida,31944,46.791718,23.74305
Apahida h.,44018,46.814587,23.758005
Apaţa,30938,45.952637,25.536259
Apoldu de Jos h.,20880,45.878,23.833128
Apoldu de Sus Hm.,20866,45.851257,23.803783
Arad,21834,46.191444,21.324781
Arad Vest,25440,46.19945,21.280306
Aradu Nou,25426,46.144146,21.335182
Aranca h.,25725,46.074734,20.969107
Arcalia hc.,40983,47.089565,24.37046
Arceşti Hm.,22175,44.45377,24.257923
Archita h.,31126,46.182785,25.096237
Arcuş h.,40165,45.906124,25.825163
Argestru Hm.,54788,47.382412,25.320692
Armeniş,11449,45.19676,22.308975
Armăşeşti Hm.,70201,44.72971,26.561775
Arpaş Hm.,20359,45.78483,24.612144
Asău Hm.,53203,46.432896,26.393187
Atelier Zona h. (Tj.),20634,45.789375,24.176388
Atârnaţi Hm.,10421,44.13625,25.062737
Augustin Hm.,30988,46.047974,25.54593
Aurel Vlaicu,21121,45.89906,23.271034
Avrig Hm.,20414,45.732273,24.373781
Axente Sever h.,33837,46.095463,24.21371
Azomureş h.,42620,46.52645,24.536203
Azuga,30550,45.44502,25.55259
Aţel h.,31293,46.197456,24.475855
Babadag,83090,44.892506,28.706493
Baciu Triaj Hm.,32053,46.787067,23.527601
Baciu h.,32065,46.795223,23.515833
Bacova h.,16401,45.658836,21.55175
Bacău,51059,46.566216,26.894787
Bahnea h.,34075,46.383026,24.488712
Baia Dobrogea,83026,44.728447,28.683704
Baia Mare,41638,47.646988,23.552134
Baia de Criş h.,35988,46.17972,22.711845
Baile Calacea,25323,45.912373,21.171198
Balc h.,44630,47.296745,22.52486
Balda h.,43272,46.730656,24.14706
Baldovineşti Hm.,70768,45.32549,27.906248
Balinteşti h.,61937,46.02432,27.924086
Balinţ h.,25062,45.7964,21.864128
Balomiru de Câmp h.,21078,45.93366,23.367395
Balota,11085,44.617523,22.803799
Balota h.,22606,45.434254,24.297129
Baloteşti Hm.,70055,44.591274,26.098993
Balta Sărată,11516,45.383427,22.234169
Balş,12998,44.3401,24.116055
Banca h.,60531,46.336052,27.79215
Banu Mărăcine Hm.,10732,44.297115,23.859865
Barboşi,70835,45.40232,27.988382
Barboşi Triaj h.,61327,45.402405,27.96422
Barcea,61573,45.768642,27.474897
Bartolomeu,20012,45.662857,25.574549
Baru Mare,23789,45.475254,23.144297
Baru Mare h.,23777,45.466026,23.166397
Basarabi,80763,44.171738,28.417837
Bascov Hm.,13590,44.895702,24.821146
Batiz h.,24032,45.775677,22.998457
Beclean pe Olt h.,20244,45.8358,24.92366
Beclean pe Someş,41054,47.177536,24.18259
Beia Hm.,31102,46.153828,25.184612
Belceşti Hm.,63026,47.29763,27.081272
Belinţ Hm.,11748,45.744392,21.762648
Bencei h.,25153,45.926826,21.383205
Benesat Hm.,41494,47.40698,23.291533
Bentu h.,72168,45.055416,26.977245
Berca,52297,45.27814,26.67521
Berchişeşti Hm.,54520,47.515896,26.019547
Beregsău hcv.,11970,45.77423,21.009985
Bereşti Hm.,61951,46.085136,27.891539
Bereşti Tunel h.,61949,46.10745,27.881886
Berheci Hm.,60402,45.975163,27.438986
Bernadea h.,34063,46.373924,24.449121
Berzovia Hm.,16073,45.4179,21.633303
Beteşti Est h.,33514,46.2899,25.093739
Beteşti h.,33526,46.294865,25.068523
Beţel h.,22589,45.376183,24.296997
Bibeşti Hm.,23234,44.778828,23.500881
Bicaz,53916,46.908073,26.09894
Bichigiu h,43492,47.399246,24.383923
Bicsadu Oltului Hm.,40220,46.10015,25.84686
Biharia Hm.,44989,47.15595,21.912313
Biharkeresztes,09422,47.135643,21.721945
Biled Hm.,26080,45.88336,20.94932
Birda hcv.,16023,45.442432,21.32886
Birtin h.,35964,46.17668,22.638054
Biserica Larga Jijia h.,63210,47.316788,27.385603
Bistriţa Bârgăului Sat h.,43076,47.209625,24.76044
Bistriţa Bârgăului h.,43090,47.199932,24.783657
Bistriţa Bârgăului hcv.,43052,47.18274,24.805744
Bistriţa Fabrici h.,48014,47.12708,24.476624
Bistriţa Nord,42967,47.133053,24.484552
Bistriţa h.,42955,47.14545,24.501747
Bivolăria h.,55861,47.914276,25.644323
Bizuşa h.,41341,47.342213,23.603226
Biţa h.,42149,45.841366,25.972704
Blaj,31530,46.176292,23.909433
Blandiana Hm.,21054,45.966694,23.4411
Blejoi,51968,44.98514,26.015263
Boboc Hm.,50392,45.208878,26.929052
Bobolia h.,30407,45.092415,25.74673
Bocicoel h.,43624,47.73187,24.334837
Bocicoi Hm.,43753,47.957394,24.02352
Bocsig h.,35689,46.43892,21.965488
Bocşa Montană h.,16140,45.381603,21.780672
Bocşa Română hc.,16114,45.37676,21.70992
Bocşa Sălaj h.,44290,47.299046,22.926386
Bod Hm.,30859,45.759193,25.603842
Bodoc Hm.,40177,45.944645,25.84329
Bodrogu Nou h.,25658,46.125507,21.19654
Bogata Mureş h.,42785,46.46224,24.117958
Bogdana h.,80309,44.431995,27.125195
Boiu Bihor h.,35316,46.692753,21.586094
Boju Hm.,31891,46.702003,23.836687
Bolcaş h.,44757,47.352905,22.232628
Boldeşti h.,52003,45.02936,26.024035
Boldur h.,15706,45.67673,21.79559
Bologa h.,32297,46.893196,22.880354
Bolovăniş h.,53318,46.584103,26.04923
Bonţeşti h.,35809,46.28001,22.309448
Bonţida Hm.,44044,46.925182,23.78496
Bordei hc. (900),10744,44.322094,23.833761
Borla PM.,44288,47.274895,22.943422
Borleşti Argeş h.,13605,44.941624,24.772455
Boroşneu Mare h.,42151,45.82558,26.010904
Borzeşti Bacău,52948,46.221535,26.856258
Borzeşti Bacău h.,52986,46.24399,26.816687
Borzia h.,40799,46.97047,24.933016
Bota Sat h.,43296,46.632988,24.134506
Boteni h.,12417,44.66021,25.626581
Botiz Hm.,47319,47.825863,22.94554
Botoşani,54233,47.753654,26.644306
Boureni P.M.,15031,44.032314,23.437862
Brad Hm.,36126,46.13677,22.782698
Bradu de Sus,12637,44.814083,24.915344
Branisca Hm.,21365,45.91941,22.773369
Braniştea h.,61377,45.438137,27.8344
Bratca,32388,46.92884,22.60318
Bratei h.,31308,46.175114,24.421907
Brateş h.,42175,45.843052,26.07182
Brazi,30225,44.86284,26.026415
Braşov,30691,45.66168,25.613558
Braşov Triaj,30756,45.674248,25.64694
Breaza Nord h.,30471,45.21587,25.64817
Breaza hc.,30457,45.173523,25.68554
Brebu,15639,45.427986,21.977844
Bretea Mureşeană h.,21389,45.930687,22.71411
Bretea Streiului Hm.,23947,45.653103,22.995768
Breţcu Hm.,42333,46.046013,26.295435
Broscăuţi h.,63480,47.956932,26.456692
Broşteni Hm.,71683,44.66904,26.769226
Brusturoasa h.,53253,46.522675,26.172586
Brâncoveneşti h.,42436,46.853462,24.769617
Brâncoveni h.,82125,44.480244,27.368486
Brădet Hm.,20127,45.75395,25.250023
Brădeşti h.,10861,44.490658,23.61779
Brădişoru de Jos h.,16968,45.074284,21.712292
Brăhăşoaia h.,60696,46.71942,27.607504
Brăila,70706,45.281765,27.955967
Brăişoru Hm.,32285,46.880394,22.920568
Brăneşti Hm.,80153,44.45855,26.35803
Brăneşti Sat h.,80165,44.461506,26.314993
Brăneţ h.,12974,44.33385,24.20657
Brăteni h.,43167,46.929295,24.371944
Brătăşanca h.,32912,44.9134,25.821867
Buc. Sud Gr. Călători,81690,44.422153,26.238144
Bucecea Hm,54154,47.761948,26.442146
Buceşti h.,61523,45.659832,27.52857
Bucureşti Basarab h.,10079,44.45875,26.055382
Bucureşti Băneasa,80036,44.48537,26.074085
Bucureşti Nord Gr.A,10017,44.44665,26.073465
Bucureşti Nord Gr.B,17417,44.44948,26.069263
Bucureşti Obor,80074,44.450836,26.136806
Bucureşti Progresu,13863,44.365456,26.091286
Bucureşti Triaj h.,17479,44.476456,26.028152
Bucureşti Vest,12144,44.427204,25.967833
Bucureştii Noi,10108,44.47553,26.014967
Bucşani Vâlcea h.,22319,44.8423,24.238928
Bucşani h.,32986,44.9123,25.622707
Bucşeneşti h.,13411,45.017735,24.96694
Buda,30378,44.96349,25.926046
Budeşti Cluj h.,43208,46.86599,24.262695
Budeşti Hm.,81793,44.238827,26.466616
Budieni h.,23387,45.021015,23.39871
Budila h.,42010,45.68222,25.815065
Budăi h.,62797,47.217598,27.222065
Buftea,30146,44.564175,25.957235
Buhuşi,53679,46.709976,26.704325
Buhăceni h.,63399,47.806583,26.995707
Buhăieşti,60725,46.797302,27.560066
Bujoreni Vâlcea Hm.,22450,45.151787,24.376556
Bulboaca h.,60610,46.559483,27.783068
Bulz Hm.,32364,46.93424,22.662783
Bumbeşti Hm.,23492,45.155975,23.37735
Buneşti h.,44111,47.0749,23.912888
Bungeţel h.,23155,44.563217,23.49998
Burjuc h.,21468,45.949165,22.489042
Bursuceni h.,54130,47.668186,26.447573
Butan h.,32479,47.019283,22.44317
Butoieşti Hm.,10940,44.586754,23.355389
Buzescu h.,14491,44.009644,25.223978
Buziaş,15756,45.657837,21.580406
Buzău,50342,45.142,26.821585
Buzău Nord Hm.,52259,45.167366,26.772558
Buzău Sud,72120,45.12202,26.867641
Buşag Hm.,41767,47.664665,23.428244
Buşteni,30548,45.41586,25.537607
Bâlca h.,52883,46.156605,26.989143
Bâldana h.,12364,44.620758,25.782701
Bâlteni Olt Hm.,12857,44.45452,24.52162
Bâlteni h.,18071,44.85934,23.273346
Bârgău h.,43105,47.215584,24.750303
Bârla pe Şieu h.,40933,47.015003,24.52968
Bârlad,60490,46.21516,27.673748
Bârnova Hm.,60804,47.013145,27.568645
Bârzava,21638,46.102253,21.99718
Bârzava Nouă Hm.,21640,46.103622,21.973116
Bârzeşti h.,60701,46.744987,27.586905
Băbeni,22357,44.959892,24.23883
Băbuţeni Hm.,41391,47.296925,23.393673
Băcia Hm.,24044,45.7926,22.99996
Băcia h.,24056,45.804855,23.001387
Bădeni h.,63090,47.406048,26.949972
Bădila h.,52376,45.257416,26.509449
Băiculeşti h.,13643,45.05501,24.695286
Băieşti Hm.,23856,45.541023,23.008057
Băile Herculane,11308,44.86263,22.3878
Băile Miercurea h.,20919,45.908577,23.738773
Băile Ocna Sibiului h.,33746,45.875385,24.070536
Băile Sarata Monteoru hcv.,50287,45.102345,26.706196
Băile Tuşnad Hm.,40256,46.15125,25.86006
Băileşti,15055,44.03343,23.349691
Bălani h.,42307,46.0788,26.18932
Băleni h.,61860,45.813522,27.947868
Bălnaca h.,32390,46.934204,22.579216
Bălteni Hm.,60684,46.690674,27.642685
Băluşeşti h.,62591,46.889233,27.214808
Bălăbăneşti h.,62008,46.136066,27.690353
Bălănoaia Hm.,14300,43.947998,25.930532
Bălăuşeri hcv.,34128,46.407223,24.700144
Băneasa Giurgiu Hm.,13978,44.052246,26.045513
Băneşti Suceava h.,51516,47.568443,26.503595
Băneşti h.,13124,44.742466,25.568998
Bănila Câlnic h.,15677,45.358257,21.89252
Băniţa,23739,45.44783,23.263393
Bărbuleşti h.,70213,44.72226,26.60196
Bărbăteşti Hm.,23272,44.87203,23.511616
Bărăbanţ Hm.,23002,46.090683,23.598778
Bărăbanţ Nord h.,22993,46.110188,23.577206
Bărăganu Hm.,80440,44.420578,27.697845
Bărăteaz h.,25880,45.980164,21.068798
Bătuţa Hm.,21614,46.05603,22.045357
C. C. H. Dej h.,41200,47.14945,23.883753
C.A.Rosetti Hm.,72209,45.05889,27.15061
C.I.L. h.,13588,44.882366,24.840265
CTF Făurei h.,72235,45.077297,27.246553
Cacica Hm.,55287,47.638683,25.930147
Cadia h.,45062,47.32622,22.065231
Caila hc.,41028,47.149197,24.288742
Calafat,15172,43.99122,22.924267
Canton 217 h.,12986,44.335445,24.141167
Canton 239+700 h.,14738,44.10758,24.371063
Canton 282 h.,10897,44.532547,23.54495
Canton 97+770 h.,18667,44.827957,25.0027
Canton Nr. 9 h.,36853,46.169914,20.990559
Caracal,10574,44.119415,24.364977
Caracău h.,53435,46.529972,25.858763
Caraliţa h.,53227,46.443596,26.339539
Caransebeş,11554,45.424442,22.221367
Caransebeş haltă h.,11528,45.418255,22.21344
Carasa h.,63492,47.92783,26.518188
Carei,45323,47.696865,22.460133
Cariera Leasa h.,35914,46.2666,22.539383
Carpaţi h. (IIIK),10081,44.468197,26.040909
Castelu h.,80737,44.251495,28.335672
Cataloi Hm.,83167,45.105167,28.749773
Cazaci h.,13150,44.818127,25.53102
Caţa Hm.,31073,46.09224,25.271194
Ceamurlia de Jos h.,83040,44.76567,28.721907
Cebza h.,17168,45.56574,21.001738
Cefa Hm.,35433,46.90389,21.731983
Cenad h.,26236,46.13499,20.595337
Cepleniţa h.,63088,47.379684,26.963343
Cernavodă Pod,80581,44.338997,28.02429
Cernele,10809,44.35542,23.75617
Cerneteaz h.,25127,45.838318,21.2852
Cernica h.,81729,44.40107,26.298609
Cerăt h.,14996,44.060917,23.687918
Cetatea de Baltă h.,33930,46.245323,24.164259
Cetatea h.,14257,43.939175,25.954718
Cezieni h.,10598,44.152878,24.314674
Checea Sat P.O.,12003,45.788784,20.849398
Chevereş h.,16396,45.655045,21.494143
Cheţani h.,42840,46.46468,24.0183
Chiajna,10146,44.470455,25.980682
Chichiş h.,40074,45.771442,25.804935
Chinezu h.,25878,45.946133,21.051212
Chintelnic h.,43117,47.10406,24.327614
Chiraftei h.,61846,45.77058,28.013653
Chiraleş h.,43129,47.08525,24.314665
Chiriacu Hm.,14269,43.981846,25.762688
Chiribiş h.,44680,47.32227,22.342825
Chirileu h.,42709,46.465195,24.376661
Chitila,30110,44.50204,25.984516
Chizătău Hm.,11750,45.750195,21.711527
Chişineu Criş,35263,46.52411,21.531311
Ciceu Cristur h.,41080,47.190758,24.089638
Ciceu Mihăeşti h.,41119,47.17334,23.970493
Cicârlău h.,41779,47.687782,23.398558
Cilibia Hm.,72170,45.043713,27.022165
Ciobotani h.,40696,46.950535,25.266205
Ciochina h.,71750,44.606747,27.05836
Ciochiuţa Hm.,11009,44.60343,23.125849
Ciocmani h.,41406,47.285664,23.359262
Ciocăneşti Hm.,12340,44.580616,25.851227
Ciolpani Hm.,10328,44.243744,25.460094
Ciopea h.,23870,45.562782,22.976274
Ciorani Hm.,71619,44.789803,26.384615
Ciprian Porumbescu Hm.,54489,47.558174,26.10789
Cipău h.,42735,46.43443,24.272943
Cireşoaia h.,53083,46.29545,26.56238
Cireşu Hm.,72261,44.970776,27.369965
Cislău hcv.,52431,45.246677,26.377693
Cistei h.,31580,46.182045,23.755482
Ciucea Hm.,32326,46.954605,22.811516
Ciudanoviţa Pam.,16982,45.12822,21.787746
Ciulniţa,80361,44.427814,27.350586
Ciumeghiu Hm.,35330,46.72525,21.59513
Ciumeşti,13382,44.92634,24.884989
Ciurea Hm.,60842,47.096294,27.566717
Clarii Vii h.,12015,45.7931,20.799139
Cliciova,25048,45.81201,21.957191
Clondiru h.,50251,45.063114,26.603516
Clucereasa h.,13409,44.98034,24.944542
Cluj Napoca,32015,46.78462,23.586926
Cluj Napoca Est,31982,46.77884,23.670483
Clujana h.,47668,46.784386,23.625076
Cociu h.,43416,47.19733,24.231785
Codlea Hm.,20050,45.69383,25.457174
Cogealac,82955,44.570972,28.56582
Cojocaru h.,12493,44.699978,25.378225
Cojocna Hm.,31920,46.766823,23.79015
Coldău Hm.,41078,47.18148,24.119656
Colibaşi h.,22199,44.505466,24.259523
Colţan h.,16152,45.3677,21.801928
Comana Hm.,13928,44.173176,26.146446
Comarnic,30483,45.242355,25.63274
Comlăuş h.,35201,46.360355,21.52019
Comăneşti,53174,46.420944,26.449787
Conop PO,21664,46.10103,21.875809
Constanţa,80892,44.168617,28.63148
Conţeşti h.,12405,44.656918,25.652863
Coplean h.,41236,47.200027,23.824661
Copăcioasa Hm.,23363,45.024284,23.431757
Copşa Mică,31401,46.114624,24.229753
Corabia,14855,43.771782,24.503765
Corbu,12792,44.49583,24.709171
Corlăteni h.,63272,47.92223,26.548676
Corlăteşti Hm.,71530,44.899998,26.119488
Cornea h.,11372,45.03413,22.32034
Cornet Hm.,22591,45.401802,24.300894
Corneşti Târnava h.,33942,46.300724,24.212053
Corni h.,51475,47.474815,26.565308
Cornurile h.,71578,44.850456,26.237211
Cornuţel Banat Hm.,15598,45.42985,22.09429
Cornăţel Moldova h.,52869,46.132366,27.04487
Coroiu h.,34104,46.40211,24.612467
Cosmeşti Hm.,61250,45.859688,27.335539
Costeiu Mare Hm.,25086,45.749626,21.8585
Costeşti,12728,44.668575,24.877598
Costeşti Iaşi h.,62876,47.22925,26.920973
Costineşti,81119,43.959614,28.636387
Costineşti Tabără hc.,81092,43.942707,28.63182
Costişa h.,53693,46.753494,26.654745
Coteşti Hm.,50548,45.631992,27.149855
Cotnari h.,63064,47.34903,26.971973
Covasna Hm.,42199,45.858665,26.147623
Covragiu h.,23923,45.61956,23.001286
Cozia Hm.,22498,45.32087,24.2859
Coşbuc Hm.,43480,47.373882,24.391338
Coşlariu,22929,46.172695,23.676714
Coşna Hm.,54908,47.371628,25.151213
Coşteiu h.,24898,45.89739,22.369457
Coţofeneşti h.,33320,45.129448,26.000397
Coţofeni Hm.,10847,44.461613,23.66702
Craiova,10770,44.327084,23.822088
Craiova Triaj hc.,10782,44.339485,23.789783
Crasna,60593,46.50705,27.824385
Cricov Hm.,50160,44.944393,26.23656
Cristeşti Jijia,61080,47.171085,27.726347
Cristeşti Paşcani h.,56126,47.266487,26.577196
Cristian Hm.,22010,45.617664,25.479626
Cristian Sibiu h.,20775,45.776814,24.024384
Cristur Hm.,33502,46.293762,25.03886
Criva h.,12936,44.37276,24.298988
Crivadia Hm.,23765,45.46347,23.197384
Crivina,30196,44.760166,26.025904
Cruceni hcv.,17211,45.470993,20.87211
Crusovat,11360,44.99592,22.32843
Crângu Lui Bot Hm.,32883,44.92367,25.91813
Crângu Lui Tei h.,32895,44.921543,25.884779
Crăciunel Hm.,31566,46.172714,23.844036
Crăciuneşti h.,43789,47.950863,23.985367
Crăieşti h.,33966,46.2913,24.202868
Cuceu Sălaj h.,44173,47.25423,23.20127
Cuci h.,42761,46.460457,24.163351
Cuciulat Hm.,41389,47.318943,23.413467
Cucuieţi Sudiţi h.,81767,44.330803,26.387775
Cunţa Hm.,20933,45.928055,23.719465
Curcani h.,81810,44.20732,26.592611
Curtea de Argeş,13667,45.137936,24.672983
Curtici,21925,46.34106,21.297556
Curtuiuşeni h.,45232,47.5584,22.201103
Cut h.,20945,45.924526,23.661476
Câineni,22632,45.49147,24.302862
Câlnic h.,16176,45.334385,21.858297
Câmpia Sălaj h.,44305,47.319122,22.898033
Câmpia Turzii,31827,46.547005,23.879581
Câmpina,30421,45.13261,25.711405
Câmpu Libertăţii h.,31504,46.172504,23.940233
Câmpulung,13514,45.259293,25.037397
Câmpulung Est Hm.,54635,47.517483,25.596903
Câmpulung Moldov.,54661,47.533848,25.552923
Câmpuri Surduc Hm.,21456,45.936954,22.53471
Cândeşti h.,52273,45.24473,26.71549
Cânepişti h.,31853,46.607567,23.847136
Cârbeşti Hm.,24599,44.948967,23.191149
Cârcea h.,13069,44.28438,23.893442
Cârţa h.,20361,45.783348,24.573826
Cârţani h.,40488,46.53259,25.767645
Câţcău h.,41248,47.21266,23.776985
Căciulaţi Hm.,70079,44.610588,26.158241
Căiuţi Hm.,52900,46.186577,26.929749
Călan Băi,24020,45.75958,22.999586
Călan Hm.,23997,45.730038,22.989798
Căldăraru h.,82060,44.405254,26.276115
Călimăneşti,22503,45.235798,24.355131
Călimăneşti Vrancea h.,50744,45.96054,27.210562
Călina h.,22278,44.720505,24.25578
Călineşti Hm.,12572,44.810417,25.062185
Călăraşi Nord Hm.,82175,44.260574,27.324083
Călăraşi Sud,82204,44.20057,27.33366
Călăraşi Turda Hm.,31798,46.48704,23.885654
Cămara Sighet h.,43806,47.942883,23.909355
Căpruţa h.,21626,46.081486,22.023289
Căpâlna pe Someş h.,41262,47.24588,23.743887
Căpăt h.,15732,45.690376,21.65794
Cărbuneşti,23313,44.955772,23.508493
Cărpiniş,11994,45.783665,20.907871
Cătălina h.,42242,45.955395,26.151312
Căvăran,11619,45.54824,22.139135
Căzăneşti,71736,44.63413,27.003366
Căşeiu Hm.,41224,47.188217,23.851645
Dagâţa,62565,46.917847,27.203613
Daia PO,14001,43.995728,26.000345
Daneş Hm.,31243,46.225437,24.702883
Deaj h.,34049,46.352158,24.39511
Dealu Ştefăniţei,43545,47.577415,24.4152
Dealul Robului h.,14958,44.12848,23.69498
Decea h.,31724,46.378258,23.766787
Deda,40830,46.941425,24.865755
Deda Bistra Hm.,40804,46.96054,24.908192
Deduleşti Hm.,70550,45.108986,27.399664
Dej Calatori,41195,47.1426,23.894787
Dej Triaj,41145,47.156746,23.91304
Denta h.,16621,45.345604,21.23543
Dep Petroşani h.,36798,45.43246,23.360237
Depoul Buc.Triaj h. (IIIK),30108,44.475468,26.02998
Derşida h.,44355,47.384705,22.791237
Deta Hm.,16607,45.396603,21.230669
Deva,21286,45.884094,22.91133
Deveselu h.,14740,44.058083,24.39461
Dezmir h.,31968,46.780586,23.69887
Diosig Hm.,45048,47.297367,22.012339
Ditrău,40610,46.797314,25.4759
Dobeni h.,33564,46.256695,25.207436
Dobra Hm.,24862,45.918087,22.569504
Dobrei hcv.,36504,45.101547,21.771662
Docăneasa h.,61987,46.114365,27.783253
Dodeşti h.,60555,46.37577,27.821663
Dofteana Bacău Hm.,53095,46.33108,26.534187
Doiceşti,13239,44.987267,25.411314
Doiceşti h.,13241,44.998215,25.401564
Dolhasca,51451,47.426567,26.608887
Domaşnea Cornea Hm.,11384,45.059982,22.308453
Domneşti Târg h.,50770,46.027878,27.191666
Domneşti pe Şieu h.,40957,47.037426,24.480282
Domneştii de Sus h.,10172,44.406097,25.892391
Domăneşti h.,45359,47.697636,22.593204
Dor Mărunt Hm.,80270,44.435356,26.957693
Dor Mărunt Sat h.,80268,44.435917,26.923668
Dorna Candrenilor h.,54879,47.35813,25.25604
Dorneşti,51750,47.871563,25.9991
Dorobanţu,80749,44.238796,28.367805
Dorohoi,54374,47.962143,26.392433
Dorolţu h.,32168,46.860413,23.301184
Dragalina h.,60476,46.16139,27.59986
Dragoş Vodă Hm.,80323,44.43132,27.186361
Dridif h.,20268,45.825356,24.875715
Dridu Hm.,70172,44.681442,26.449318
Drobeta Tr. Severin,11140,44.622078,22.643627
Drobeta Tr. Severin Mf.,11138,44.60841,22.732143
Drobeta Tr.Sev Est Hm.,11126,44.622787,22.679106
Drăghici h.,13447,45.10357,25.013845
Drăguţeşti h.,24587,44.967247,23.221401
Drăgăneşti Olt,10536,44.15463,24.544699
Drăgăneşti Prahova Hm.,71580,44.82818,26.30146
Drăgăşani,22254,44.662407,24.25787
Dudeşti Hm.,72297,44.888187,27.43674
Dudeştii Noi Hm.,26042,45.825417,21.110792
Dudeştii Vechi  h.,25828,46.03071,20.47535
Dumbrava h.,53784,46.90054,26.41888
Dumbrăveni Hm.,31279,46.21592,24.561403
Dumbrăvioara Hm.,42541,46.64196,24.64025
Dumbrăviţa Bârsei Hm.,20074,45.76238,25.433395
Dumeşti h.,62620,46.837566,27.329865
Dunărea Hm.,80579,44.352287,27.969173
Dâlga h.,80294,44.43341,27.045412
Dâmbovicioara h.,12443,44.678734,25.560066
Dâmbu Hm.,71516,44.922733,26.071882
Dângeni Hm.,63416,47.852882,26.959782
Dângeni Nord h.,63428,47.867397,26.896288
Dârste Hm.,30665,45.619076,25.653795
Dârza h.,30158,44.59989,25.957138
Dăeşti Hm.,22486,45.186733,24.383549
Dăneasa h.,10524,44.133446,24.575302
Dăneşti h.,40476,46.511017,25.750841
Dărmăneşti,51671,47.71189,26.14246
Ecaterina Teodoroiu,23454,45.066486,23.301752
Eforie Nord,81066,44.057926,28.631573
Eforie Sud,81080,44.03369,28.645105
Episcopia Bihor,32742,47.09966,21.877083
Erbiceni h.,62981,47.248085,27.249968
Ergheviţa h.,11102,44.61789,22.776146
Ezeriş h.,15653,45.39991,21.90809
Ezureni h.,23466,45.0886,23.32465
Faraoani Hm.,50988,46.39516,26.965635
Feisa h.,34257,46.231823,24.137323
Feldioara Hm.,30885,45.82536,25.586369
Feldru Hm.,55146,47.275246,24.59344
Feliceni h.,33576,46.266792,25.260063
Felnac h.,25672,46.110577,21.135242
Feneş h.,27084,46.09282,23.300898
Ferma Ciala h.,25452,46.195805,21.237892
Fersig h.,41561,47.54803,23.380548
Feteşti,80505,44.41736,27.82157
Fiad Hm.,43519,47.49462,24.390612
Fibiş h.,25165,45.95432,21.419508
Fieni,13306,45.125603,25.420654
Fierbinţi,70158,44.665863,26.368649
Fiezel h.,43533,47.46214,24.38902
Fileşti Hm.,71011,45.44356,28.006788
Filiaşi,10902,44.552383,23.51084
Fişcălia Hm.,22307,44.81675,24.247322
Floreni,54881,47.359306,25.222668
Floreşti Prahova,30392,45.030178,25.809832
Floreşti h.,23179,44.624092,23.51418
Focşani,50603,45.701733,27.16944
Frasin Hm.,54570,47.54187,25.792189
Frunzeasca Hm.,60373,45.901115,27.420023
Frunzăneşti h.,81743,44.378895,26.343292
Frăsinet h.,14764,44.002457,24.421728
Frăteşti,14013,43.964016,25.970984
Fulga h.,71621,44.773895,26.432373
Fundata h.,71786,44.580555,27.196192
Fundulea Hm.,80177,44.45193,26.50886
Fundătura h.,44056,46.9504,23.796928
Fusea Hm.,12455,44.67394,25.503086
Fâlfani Hm.,12742,44.60938,24.823952
Fârţăneşti h.,61858,45.789303,27.98185
Făget,24977,45.8487,22.169004
Făget Teleajen,52041,45.138927,26.027674
Făgăraş,20232,45.830246,24.975586
Fălcoiu h.,14702,44.226635,24.345821
Făncica h.,44745,47.323757,22.243248
Fărcaşele Hm.,10550,44.121826,24.451893
Făurei,70512,45.082764,27.274862
G-ral N. Dăscălescu Hm.,42670,46.490948,24.462393
G-ral T.Moşoiu h.,22072,45.56881,25.349627
G-ral. E. Grigorescu Hm.,61224,45.85063,27.278704
Galaţi,71059,45.444504,28.061644
Galbeni,51126,46.74792,26.88226
Gataia Hm.,15835,45.422623,21.428328
Gelu h.,25892,46.002316,21.04428
Gen. Gh. Avramescu Hm.,45373,47.700302,22.67923
Geoagiu h.,21133,45.883495,23.247986
Gheaba 2 P.O,52168,45.31039,25.996696
Gheorgheni,40579,46.718807,25.573648
Ghergani Hm.,12388,44.642643,25.718052
Gherla,44094,47.027626,23.9133
Gherteniş h.,16061,45.42101,21.587818
Ghidigeni Hm.,60438,46.075706,27.478254
Ghimbav Hm.,20036,45.669533,25.509823
Ghimeş,53291,46.55782,26.108404
Ghioroc,21755,46.15154,21.583294
Ghiroda h.,11841,45.778553,21.30726
Giarmata Hm.,25115,45.83353,21.30743
Gilort Hm.,23193,44.657066,23.523907
Giorocuţa h.,44381,47.433613,22.77757
Giroc h.,16308,45.710667,21.21125
Giulvăz h.,17170,45.54878,20.995308
Giurgiu,14049,43.89533,25.960798
Giurgiu Nord,14037,43.92206,25.964848
Giurtelec h.,44525,47.298782,22.783974
Gligoreşti Hm.,42852,46.441944,23.996265
Glodu Someşului h.,41298,47.28086,23.645939
Glogoveţ h.,27175,46.131084,24.01302
Glogovăţ,21808,46.177624,21.4001
Goioasa Hm.,53239,46.450985,26.290442
Golenţi Hm.,15134,43.9806,23.051823
Goleşti,12596,44.8369,24.965336
Gorneşti Mureş h.,42539,46.67173,24.65621
Govora,22371,45.02218,24.281055
Grajduri,60799,46.979305,27.550903
Greci h.,70134,44.65192,26.293722
Grindeni h.,31786,46.436565,23.89652
Griviţa h.,62010,46.161076,27.655495
Gropeni h.,13370,44.88236,24.883938
Grozăveşti Hm.,10615,44.147976,24.235712
Grupa Tehnică Caracal Hm.,14752,44.086437,24.380919
Grădinari,10201,44.381596,25.825094
Grădiniţa Hm.,54922,47.34214,25.064499
Grădiştea PO,13916,44.209934,26.164663
Gugeşti,50512,45.566963,27.131113
Gura Arieşului h.,42864,46.427197,23.9557
Gura Bascii h.,52443,45.262913,26.362017
Gura Humorului Hm.,54544,47.552593,25.941875
Gura Humorului Oraş,54556,47.55094,25.883856
Gura Motrului Hm.,10926,44.573795,23.432796
Gura Putnei h.,55873,47.91492,25.622988
Gura Văii Hm.,11176,44.65987,22.560349
Gurahont,35823,46.273952,22.343454
Gurasada PO,21432,45.94331,22.586618
Guruslău h.,44276,47.255882,22.977625
Gâlgău,41286,47.28004,23.696672
Gâlgău h.,41274,47.268196,23.66876
Gârbovu h.,18007,44.73281,23.357443
Gârbău h.,32144,46.830643,23.359503
Gârleni Hm.,53643,46.65744,26.813944
Gârliste Hm.,17003,45.145462,21.825129
Gârniţa Hm.,11073,44.613796,22.84956
Găeşti,12510,44.713936,25.30424
Găeşti Sud h.,12508,44.705166,25.35235
Găgeni h.,33277,45.024513,25.937256
Găiseanca h.,70536,45.091866,27.322296
Gălbinaşi h.,81779,44.312233,26.413942
Gălăneşti Hm.,55823,47.9062,25.802431
Gălăteni Hm.,10342,44.210693,25.370882
Gălăuţaş Hm.,40658,46.911476,25.405863
Găneasa Olt h.,22163,44.419495,24.262934
Găneasa h.,22151,44.395035,24.274218
Găneşti h.,34037,46.343964,24.3656
Găvojdia,11657,45.622234,22.024664
Găvănel h.,33306,45.080936,25.995314
Halmeu,45531,47.983013,22.996935
Halta Aluniş h.,42424,46.871445,24.791477
Hanu Conachi Hm.,61494,45.58227,27.594646
Haşag h.,33772,45.971386,24.10739
Hodoni h.,25866,45.90195,21.082172
Hodora h.,63040,47.329895,27.01367
Holboca Hm.,61066,47.147762,27.689655
Holdea Hm.,24915,45.8947,22.393307
Homorâciu P.M.,52120,45.267982,26.016253
Horodnicu h.,55809,47.86764,25.86063
Horticola h.,15067,44.034138,23.27267
Hotoan h.,44484,47.557583,22.503036
Huedin,32261,46.866962,23.032372
Hârlău,63105,47.418827,26.921675
Hârseşti Hm.,12778,44.517166,24.756195
Hălmagiu Hm.,35926,46.254288,22.568491
Hălăuceşti h.,51267,47.094276,26.818659
Hămeiuş h.,53631,46.627995,26.85795
Hărman,40024,45.69781,25.686209
Hătcărău h.,71592,44.81352,26.326921
I. L. Caragiale,32948,44.908047,25.723473
I. L. Caragiale Vest h.,32950,44.910088,25.68379
Iablaniţa,11346,44.941326,22.327728
Iacobeni,54764,47.43004,25.308292
Iacobenii Vechi h.,63246,47.445957,27.305838
Ialomiţa Hm.,71645,44.748444,26.50776
Ianca hc.,70574,45.127636,27.483759
Iaşi,60921,47.16746,27.56572
Iclod Hm.,44068,46.978302,23.816051
Ideciu de Jos h.,42448,46.817204,24.75968
Iernut,42747,46.44055,24.223467
Igiroasa Hm.,11047,44.589268,22.974966
Ilba h.,41793,47.71472,23.346813
Ileanda,41327,47.32645,23.608915
Ilia,21406,45.94051,22.657326
Ilieni h.,40036,45.72657,25.762695
Ilteu,21511,46.00739,22.355627
Ilva Mare Hm.,54996,47.364147,24.872469
Ilva Mică,55110,47.30589,24.63804
Imeci Hm.,42230,45.940422,26.157928
Independenţa Hm.,61420,45.478233,27.762444
Ineu,35639,46.421257,21.82841
Inoteşti Hm.,50184,44.971672,26.349161
Inău h.,41470,47.362595,23.271141
Ion C. Brătianu Hm.,13368,44.863678,24.92013
Ioneşti Gorj h.,10952,44.61935,23.438223
Ioneşti Hm.,22321,44.874325,24.23121
Ipu h.,44604,47.22057,22.608757
Islaz h.,80189,44.457684,26.38259
Iteşti Hm.,51097,46.66859,26.897022
Iveşti Hm.,61535,45.688507,27.517447
"Ivăneşti h,",80347,44.430046,27.260443
Iza hc.,43595,47.657536,24.378078
Izvin h.,11815,45.794254,21.462717
Izvoarele h.,52132,45.28112,26.002186
Izvoru Mureşului Hm.,40517,46.62686,25.71597
Izvoru Oltului,40490,46.56819,25.796064
Işalniţa,10823,44.40515,23.715918
Işalniţa h.,10811,44.392326,23.722904
Jabăr Hm.,11724,45.72663,21.826653
Jebel Hm.,15988,45.5566,21.197882
Jebuc h.,32235,46.864494,23.09381
Jegălia,80426,44.42338,27.583666
Jena Hm.,11645,45.5905,22.081383
Jianca,10641,44.164112,24.131569
Jibou,41444,47.250195,23.265278
Jidvei  hcv.,33928,46.230152,24.108343
Jijia h.,63349,47.656662,27.088661
Jilava,13887,44.341858,26.106674
Jimbolia,12039,45.800274,20.718025
Jiu Hm.,14879,44.305813,23.84629
Joia Mare h.,35768,46.30257,22.18082
Josenii Bârgăului h.,43040,47.214775,24.66951
Jucu Hm.,44020,46.862667,23.76398
Jucu de Jos h.,43997,46.87794,23.773949
Jupâneşti Hm.,23296,44.910187,23.5195
Km. 105+600 h.,28014,45.284473,23.389484
Km. 106+800 h.,27735,44.84186,24.89801
Km. 109+300 h.,27747,44.83961,24.897066
"Km. 25+700 h,",82199,44.205387,27.323715
Km. 49+800 h.,24628,44.905056,23.147774
Km. 74+600 h.,71700,44.649002,26.866474
Km. 9+820 h.,10859,44.644085,23.415503
Kotegyan,09446,46.75862,21.478958
Lacu Crişului h.,32340,46.959553,22.73599
Lacu Sărat,70677,45.227135,27.86796
Lainici Hm.,23533,45.269924,23.384663
Lalaşinţ h.,21561,46.07217,22.023394
Larga Jijia Hm.,63208,47.331432,27.38349
Larion Hm.,54946,47.332146,25.024527
Laslău h.,34087,46.39236,24.542843
Lechinţa,43143,47.018234,24.335932
Lehliu,80256,44.43845,26.858574
Lemnia h.,42321,46.05651,26.257183
Leorda Hm.,54180,47.816853,26.481398
Leordeni Argeş,12558,44.78387,25.124268
Leordina Hm.,43648,47.78496,24.260036
Leordina h.,43636,47.7657,24.28584
Lespezi Bacău h.,53655,46.665894,26.76867
Lespezi Hm.,51413,47.347256,26.671774
Letca Hm.,41377,47.338043,23.46551
Letea h.,51035,46.521362,26.934704
Leu Hm.,10677,44.200405,24.037348
Leş Bihor Hm.,35469,46.980602,21.807991
Leşu Ilvei Hm.,55031,47.31557,24.691772
Leţcani,62759,47.194607,27.392109
Lieşti Hm.,61511,45.632767,27.538242
Lipăneşti h.,52015,45.05399,26.023626
Liteni Hm.,51499,47.515095,26.536295
Livada Someş h.,44070,47.00553,23.843311
Livadia h.,23806,45.495396,23.127737
Livezeni,23583,45.376827,23.36762
Livezi Ciuc,53394,46.526134,25.889544
Livezile Bârgăului h.,42981,47.179253,24.562128
Lişava Hm.,16970,45.105125,21.780813
Loamneş Hm.,33760,45.93893,24.087852
Lokoshaza,09461,46.432194,21.238043
Lotru,22565,45.348003,24.274923
Lovrin,26145,45.965443,20.755514
Lucăceşti h.,54506,47.505688,26.102085
Luduş,42814,46.46709,24.088253
Luduş Sat h.,43375,46.48461,24.100794
Lugoj,11695,45.67967,21.897402
Lugoj Nord h.,11700,45.7104,21.886417
Luica h.,81640,44.225235,26.5636
Luna h.,31255,46.220387,24.628056
Lunca Banului h.,10964,44.602493,23.27631
Lunca Bradului Hm.,40749,46.955223,25.103073
Lunca Budieni Hm.,23399,45.02015,23.359724
Lunca Ilvei,54972,47.36716,24.963715
Lunca Jiului hc.,23612,45.401752,23.37326
Lunca Moţilor h.,35976,46.180286,22.681358
Lunca Mureşului h.,42876,46.41867,23.918453
Lunca Siretului h.,51401,47.306553,26.694656
Lunca de Mijloc Hm.,53332,46.57912,25.99528
Lunca de Sus Hm.,53370,46.53775,25.9637
Lunca h.,31449,46.09153,24.066198
Lunca la Tisa h.,43741,47.94901,24.043701
Luncaviţa h.,11396,45.086277,22.289503
Lungeşti h.,61999,46.11537,27.751894
Lutiţa h.,33552,46.25575,25.187277
Lăpugiu h.,24886,45.905113,22.499735
Lăzarea Hm.,40593,46.74229,25.52895
Lăzăreşti PO,13461,45.148163,24.991257
Macău h.,32156,46.847214,23.314371
Maglavit h.,15110,44.009975,23.121841
Malnaş Băi,40206,46.035137,25.825464
Malnaş h.,40191,46.001926,25.840984
Malu Mare Hm.,10718,44.255062,23.897394
Malu h.,71695,44.65381,26.824974
Malul Alb h.,61585,45.79299,27.461243
Mangalia,81183,43.82247,28.581713
Mareşal C-tin Prezan Hm.,62606,46.829147,27.259972
Marghita,44707,47.33983,22.3282
Margina,24941,45.8565,22.265375
Marginea Bihor h.,44666,47.303043,22.418055
Marna h.,45294,47.661865,22.387882
Mateiaş h.,31023,46.028385,25.383408
Mateieni h.,63478,47.920036,26.600494
Medgidia,80684,44.25179,28.273859
Mediaş,31334,46.16046,24.351315
Medieşu Aurit Hm.,41860,47.775185,23.120285
Mehadia Hm.,11322,44.897724,22.368614
Mehadia Nouă Hm.,11310,44.87925,22.38399
Melini Valea Largă h.,43349,46.60158,24.120996
Mera Hm.,32118,46.806915,23.445782
Mereni Lutoasa h.,42319,46.072918,26.230637
Meri,23521,45.220116,23.382074
Merişani h.,13617,44.96549,24.750364
Merişor Hm.,23753,45.455715,23.231472
Mestecăniş Hm.,54740,47.450974,25.340305
Mica h.,34051,46.36016,24.420288
Miceştii de Câmpie h.,43193,46.869804,24.310213
Micula Hm.,45488,47.900726,22.96214
Micăsasa h.,31437,46.09004,24.111868
Miercurea Ciuc,40373,46.359768,25.7942
Miercurea Sibiu Hm.,20892,45.89137,23.800331
Mihai Bravu,13954,44.1173,26.082596
Mihai Viteazu Hm.,82993,44.650963,28.67919
Mihail Kogălniceanu h.,83143,45.03821,28.746387
Miheşu de Câmpie Sat h.,43301,46.680492,24.161978
Miheşu de Câmpie h.,43313,46.63952,24.144161
Mihăeşti Hm.,10483,44.119484,24.772366
Mihăileni Hm.,53423,46.469555,25.820026
Mija,32974,44.912525,25.658724
Mijlocenii Bârgăului h.,43064,47.217354,24.690792
Milcov Hm.,12912,44.38738,24.388536
Milişăuţi Hm.,51700,47.772125,26.052885
Milova Hm.,21688,46.092224,21.79137
Mintia,21315,45.92078,22.849983
Mintia h.,21327,45.916588,22.82555
Mioveni h.,13394,44.952663,24.911514
Mircea Vodă Hm.,80634,44.266663,28.143967
Mirceşti,51255,47.059868,26.843859
Mireşu Mare PM.,41547,47.499386,23.341524
Mirăslău h.,31712,46.361267,23.720778
Mirşid Hm.,44197,47.231327,23.115532
Mititei h.,43454,47.281773,24.31887
Mizil,50213,44.99451,26.43814
Moacşa hcv.,42137,45.857647,25.939165
Moara Vlăsiei Hm.,70110,44.637325,26.21509
Mocrea h.,35615,46.389072,21.810066
Moftin h.,45361,47.697823,22.643637
Mogoşeni Hm.,43428,47.20835,24.250942
Mogoşeşti h.,51281,47.131054,26.773281
Mogoşoaia,70031,44.53563,26.023518
Mohu h.,20543,45.740578,24.212687
Moldoveni h.,70184,44.71831,26.508205
Molid Hm.,54594,47.566437,25.734383
Moniom h.,16164,45.352825,21.830238
Monor Gledin,40892,46.961067,24.703941
Morăreni h.,40866,46.924923,24.82334
Moscu h.,61896,45.905907,27.932802
Mostiştea h.,80191,44.447598,26.582602
Movila Dâmboviţa h.,13136,44.768524,25.56116
Movila Hm.,82345,44.539845,27.7179
Movila Oii h.,72182,45.043766,27.073439
Movileni h.,63181,47.267883,27.374582
Moţăieni h.,13291,45.092205,25.423456
Moţăţei Hm.,15093,44.03488,23.189783
Muncel Hm.,51293,47.16592,26.747795
Munor h.,25701,46.099594,21.016512
Munteni Buzău h.,71724,44.64774,26.972166
Munteni Hm.,60622,46.591724,27.757906
Mureni Hm.,31140,46.22602,24.996208
Murfatlar h.,80787,44.166004,28.454264
Murgeanca Hm.,72338,44.742077,27.574158
Muru h.,50158,44.94725,26.206964
Musculeşti,23258,44.818466,23.511642
Mândra Oltului h.,20206,45.824684,25.048586
Mândra h.,33758,45.924126,24.075888
Mândreşti h.,63442,47.906128,26.747276
Mânăstirea Turnu h.,22539,45.290325,24.300041
Mârşa h.,20440,45.701653,24.360317
Mâsca Măderat h.,35548,46.299255,21.665607
Măceu h.,23961,45.67599,22.992123
Mădăraş Bihor h.,35421,46.83339,21.66497
Mădăraş Ciuc Hm.,40464,46.48864,25.742016
Măgheruş Şieu Hm.,40995,47.101883,24.352833
Măgura Ilvei Hm.,55005,47.379772,24.792519
Măgura hcv.,52340,45.28107,26.580774
Măgura Şimleului h.,44575,47.23412,22.784042
Măgurele Nord h.,52170,45.12558,26.035357
Măgurele Prahova h.,52039,45.098003,26.044525
Măgurele Sud h.,52027,45.082973,26.033957
Măieruş h.,30914,45.89899,25.54626
Măldăeni Hm.,10469,44.113564,24.88426
Mălăeşti h.,33318,45.10119,26.009228
Măneciu,52156,45.315357,25.997503
Măneciu Pamânteni h.,52144,45.29884,25.996479
Mănărade h.,31463,46.142365,23.984634
Mănăştur Hm.,25012,45.827923,22.06761
Mărişelu Hm.,40945,47.019005,24.49943
Mărunţişu hcv.,52455,45.29181,26.362265
Mărăşeşti,50691,45.87686,27.215048
Mătăsaru Hm.,12479,44.686764,25.442568
Măureni h.,16047,45.42248,21.511255
Nadab,35249,46.486053,21.501621
Negoieşti h.,82084,44.23354,26.501522
Negreni h.,32338,46.951797,22.781422
Negreşti Vaslui Hm.,62656,46.82387,27.451958
Nehoiaşu Hm.,52546,45.431225,26.30615
Nehoiu h.,52522,45.418434,26.30703
Nemeşeşti h.,24939,45.884132,22.320654
Nepos h.,55158,47.27927,24.53683
Neptun Hm.,81171,43.860146,28.578587
Neptun hc.,81133,43.886024,28.60483
Nevrincea h.,25050,45.804016,21.90278
Nichişeni,60426,46.04504,27.457752
Nicolae Bălcescu,82852,44.376976,28.380398
Nicolina,60878,47.147923,27.579245
Nima h.,44123,47.093098,23.906631
Nimigea Hm.,43442,47.247963,24.29997
Nimigea h.,43430,47.236027,24.282799
Nistoreşti h.,30469,45.19493,25.672586
Nucet,13148,44.788074,25.55358
Nuşfalău h.,44587,47.21451,22.692951
Nyirabrany,09410,47.52387,22.016129
Nădejdea Hm.,53411,46.513115,25.832207
Nădejdea Sat h.,53409,46.48941,25.827974
Nădlac,25567,46.15952,20.76712
Nădăşel h.,32120,46.815796,23.425776
Năsăud,55184,47.28122,24.410938
Năsăud h.,48076,47.289883,24.38678
Ociu h.,35940,46.20969,22.571909
Ocişor h.,35938,46.22232,22.559772
Ocna Sibiului Hm.,33710,45.857086,24.06755
Odoreu h.,41884,47.800934,22.993895
Odorhei,33605,46.310295,25.302406
Odorhei Sud h.,33590,46.307602,25.289965
Ogoarele h,80397,44.425514,27.464487
Ogra h.,42723,46.443146,24.31939
Ohaba de sub Piatră h.,23868,45.5487,22.989426
Ohaba h.,24903,45.88678,22.44623
Ojasca h.,52314,45.280388,26.6502
Olteni,10366,44.190468,25.292292
Olteniţa,81846,44.085403,26.644972
Olteţ h.,20294,45.805164,24.7581
Onceşti h.,14295,43.94357,25.895176
Oneşti,53007,46.25935,26.778034
Oradea,32663,47.07012,21.936531
Oradea Est,32637,47.043633,21.963064
Oradea Est Triaj h.,34477,47.034256,21.972084
Oradea Vest Hm.,32704,47.057404,21.891384
Oraviţa,16841,45.03669,21.68776
Orbeni Hm.,50940,46.278526,27.057146
Orlat,20787,45.761395,23.972038
Orleşti h.,22292,44.79834,24.246592
Ormeniş h.,30952,46.001545,25.557419
Orăştie,21157,45.861763,23.210474
Orşova,11231,44.730934,22.416847
Orţişoara,25347,45.963562,21.19073
Ostroveni h.,22424,45.094936,24.365702
Otopeni Nord PO,30081,44.584854,26.072554
Ovidiu Hm.,80555,44.37463,27.879194
Ozun Hm.,40103,45.799915,25.840073
Oşorhei Hm.,32601,47.039566,22.034163
P. M. Ram. Ploieşti Tj.,17728,44.90155,26.014551
P. mac. Zalhanaua,32924,44.90796,25.786516
P.O Gura Vitioarei h.,52053,45.151424,26.026884
P.mac. Văleni Nord,52106,45.208946,26.039333
Pajura Hm. (IIIK),70017,44.479225,26.02344
Palanca Hm.,53265,46.534515,26.128405
Palas,80830,44.164967,28.58387
Paloş Ardeal h.,31097,46.1221,25.220016
Pantelimon,80103,44.47829,26.191805
Pantelimon Sud h.,80098,44.4779,26.179174
Pantelimon Vest P.O.,80115,44.47705,26.177458
Parc Divertisment Chiajna h.,10158,44.432983,25.941828
Parc Mogoşoaia h.,70029,44.520657,26.009604
Parcul Kreţulescu h.,13502,45.27396,25.050192
Parângu Hm.,23478,45.11047,23.343403
Parţa h.,17120,45.64514,21.13022
Pasaju Coşoveni h.,10706,44.242626,23.930195
Pasărea,80139,44.46876,26.265474
Patinoar PO,69991,44.566875,26.06565
Paulian h.,35744,46.32901,22.15683
Paulis Hm.,21731,46.10711,21.610516
Pav. CFR Braşov Triaj h.,57223,45.66727,25.63521
Paşcani,51358,47.257427,26.724014
Paşcani  Gr. Triaj,51346,47.241467,26.733673
Pecica,25488,46.174522,21.086155
Peciu Nou h.,17144,45.59796,21.05233
Peret h.,14465,44.04756,25.094484
Periam,25751,46.03639,20.8727
"Perieţi h,",71798,44.58124,27.25627
Periş,30172,44.678192,25.996637
Periş Mureş h.,42527,46.701736,24.672173
Perişoru Hm.,80402,44.424614,27.505274
Perşani h.,20141,45.787186,25.197638
Pesac h.,25933,45.998688,20.828188
Pescăreţu Mic h.,26066,45.827217,21.051067
Pescăruş h.,81121,43.90372,28.61867
Petelea h.,42503,46.739983,24.713821
Petreu h.,44721,47.33373,22.295553
Petriş pe Mureş h.,21509,46.01421,22.396606
Petrosani Triaj h.,23636,45.44287,23.358086
Petrova hc.,43662,47.828945,24.211044
Petroşani,23624,45.423412,23.366259
Petroşniţa h.,11499,45.334343,22.26939
Peşteana Jiu h.,18069,44.83586,23.300823
Peştera Bolii h.,23715,45.448368,23.32138
Piatra Craiului Hm.,32352,46.94667,22.702509
Piatra Neamţ,53813,46.926697,26.361225
Piatra Olt,12948,44.36817,24.254953
Picioru Lupului h.,60828,47.053833,27.57344
Pieleşti Hm.,13045,44.319286,23.955885
Pietrele Albe Hm.,23557,45.306602,23.384394
Pietrişu h.,62864,47.209187,26.953157
Pietroşiţa Hm.,13332,45.18354,25.440289
Piscu Rusului h.,62541,46.958874,27.133038
Piscu h.,61444,45.506947,27.719952
Piteşti,12613,44.846428,24.889944
Piteşti Nord,13576,44.87037,24.861004
Pişchia h.,25141,45.894764,21.343678
Plaiu Vulcăneşti Hm.,13071,44.310814,23.854647
Platoneşti h.,82321,44.59822,27.676783
Ploiesti Est Post 1,51920,44.92582,26.03261
Ploieşti Est,50079,44.936344,26.080374
Ploieşti Nord,51932,44.95562,26.022343
Ploieşti Sud,50017,44.925102,26.029636
Ploieşti Vest,30304,44.924545,25.994612
Plopeni,33289,45.04926,25.955336
Plopeni Sat Hm.,33291,45.06066,25.968975
Plopi h.,23935,45.635338,22.99734
Plopu,70586,45.14009,27.5218
Plopşoru,18033,44.801334,23.33415
Plosca Hm.,14477,44.030415,25.142767
Ploscoş h.,31865,46.63673,23.851051
Plăieşu h.,56140,47.220695,26.45523
Plătăreşti h.,81755,44.35581,26.371008
Poarta Albă h.,80751,44.20563,28.391018
Poarta Hm.,11401,45.11142,22.296186
Podari,14922,44.243553,23.783943
Podereia Feldrului h.,55134,47.285557,24.6168
Podoleni Hm.,53710,46.79701,26.615648
Podu Iloaiei,62773,47.209156,27.284542
Podu Mureş Hm.,31619,46.17546,23.691895
Podu Olt,20490,45.662243,24.298634
Podu Pitarului h.,81717,44.346146,26.37691
Podu Rizii h.,13112,44.71304,25.557486
Podu Ulmi h.,63038,47.305786,27.057514
Poiana Ampoiului h.,27060,46.0889,23.393412
Poiana Florilor h.,42046,45.681065,25.934967
Poiana Ilvei,55017,47.369316,24.74125
Poiana Slănic h.,33332,45.15396,25.985552
Poiana Ţapului h.,30536,45.390713,25.541353
Poieni,32302,46.91474,22.861362
Poieniţa h.,42292,46.061996,26.167538
Pojogeni Hm.,23349,44.99224,23.485691
Pojorâta Hm.,54702,47.525497,25.476105
Ponor h.,23818,45.505833,23.118813
Poptelec h.,44185,47.25059,23.169916
Portăreşti Hm.,14984,44.0383,23.646517
Porumbacu Hm.,20397,45.766632,24.456205
Porumbenii Mari h.,33540,46.268677,25.139141
Porumbenii Mici h.,33538,46.27702,25.10332
Porumbeşti Hm.,45505,47.965614,22.991114
Porţi h.,44616,47.229046,22.552937
Posada h.,30495,45.281265,25.617252
Potcoava,12833,44.471317,24.603453
Potângeni h.,63193,47.324562,27.353819
Prahova h.,30201,44.80352,26.02797
Preasna h.,80232,44.445614,26.748472
Predeal,30615,45.505623,25.575645
Prejmer Hm.,40050,45.73892,25.777618
Pricaz h.,21183,45.855717,23.173738
Prisaca Dornei Hm.,54611,47.540066,25.66048
Prisaca h.,27072,46.09953,23.33006
Probota h.,51437,47.38771,26.641775
Prundul Bârgaului h.,43088,47.218063,24.741444
Prunişor Hm.,11059,44.60626,22.922367
Prăjani h.,33356,45.204723,25.949974
Pucioasa Hm.,13289,45.07563,25.431273
Pufeşti Hm.,50768,46.005627,27.20076
Pui,23832,45.51976,23.08279
Putna Centru h.,56047,47.880333,25.615353
Putna Hm.,56035,47.870277,25.614843
Putna Seacă Hm.,50653,45.805775,27.197332
Putna Troita h.,56061,47.893604,25.610535
Pâncota h.,35562,46.321777,21.678549
Pângăraţi Hm.,53863,46.93015,26.204489
Pârscov Hm.,52364,45.279114,26.55164
Pârteşti h.,55275,47.644665,25.976217
Pârvu Hm.,12687,44.77131,24.905704
Pârvu h.,12699,44.7339,24.896826
Pădureni Putna Hm.,50732,45.931606,27.216028
Pădureni Timiş P.M.,15964,45.593178,21.193092
Păltineni h.,52510,45.399376,26.3199
Pănade h.,33887,46.218235,23.96658
Părhăuţi h.,55237,47.713028,26.090374
Păru h.,25074,45.765186,21.86098
Pătroaia Hm.,12534,44.743996,25.20893
Pătârlagele Hm.,52479,45.32474,26.358282
Păuliş h.,21743,46.124615,21.585243
Păuşa h.,22515,45.250572,24.340221
R. 1 Jiu,27955,44.302322,23.8428
R. Aeroport T1,70005,44.557575,26.042048
Racova h.,53667,46.70197,26.72227
Racoviţa h.,20464,45.688236,24.340298
Racoş Hm.,31011,46.021587,25.42232
Racu h.,40414,46.446564,25.756594
Radauti Gara Mica h.,55770,47.846027,25.92996
Radna,21705,46.0934,21.690187
Radomireşti Hm.,10500,44.11116,24.670485
Radomiru h.,10639,44.156315,24.161911
Rafaila h.,62644,46.83249,27.3984
Rahău h.,20957,45.924408,23.628826
Ram. Botiz h.,45464,47.836514,22.921238
Ram. Golenţi,15158,43.978424,22.970222
Ram. Goleşti,27917,44.828075,24.93399
Ram. M.K.P. Aj. M.,89733,44.39755,28.44017
Ram. Trifeşti,51152,46.879368,26.898474
Ramificaţia Borcea Hm.,80543,44.386795,27.844698
Ramificaţia C.A.M. h.,23430,45.04101,23.283598
Rateş Munteni h.,60385,45.928852,27.431793
Rateşu Cuzei h.,60749,46.831966,27.565044
Rebricea Hm.,60751,46.874638,27.56692
Rebrişoara Hm.,55172,47.287556,24.47191
Recaş,11803,45.793682,21.489655
Recea Hm.,12871,44.43803,24.45773
Recolta h.,80414,44.4241,27.536732
Rediu h.,63284,47.54169,27.24614
Reghin,42474,46.78061,24.719149
Remetea Mare,11839,45.786346,21.363695
Remetea Mică,25177,45.97117,21.468239
Remiza T Socola P.O,61028,47.14033,27.63968
Resighea h.,45256,47.60093,22.284443
Reteag Hm.,41107,47.18787,24.023357
Reteag h.,41092,47.194813,24.063543
Reşiţa Nord,16205,45.322582,21.872034
Reşiţa Sud Hm.,16281,45.29148,21.888527
Ribiţa h.,36114,46.163765,22.763414
Robeşti h.,22618,45.45385,24.294954
Robăneşti Hm.,13021,44.3443,24.008747
Rogojelu,24604,44.925713,23.13529
Roman,51190,46.935112,26.91978
Romaniţa h.,35847,46.291607,22.40284
Romlux h.,13203,44.928806,25.436308
Romula Hm.,14726,44.17749,24.40111
Romuli h.,43521,47.54015,24.435389
Ronaţ Triaj Cab.1 h.,36815,45.770943,21.175556
Ronaţ Triaj Gr. D,25282,45.794704,21.167053
Ronaţ Triaj h..,25256,45.785107,21.17029
Rotbav h.,30897,45.841377,25.563313
Rovinari Hm.,24616,44.90208,23.157719
Rovinari Sud h.,18112,44.89873,23.170834
Roznov,53758,46.83886,26.508924
Roşcani h.,61913,45.9538,27.937576
Roşia Jiu h.,18100,44.895466,23.198036
Roşieşti h.,60579,46.430477,27.833914
Roşiori Bihor h.,45024,47.263893,21.944572
Roşiori Hm.,14312,44.10958,25.005814
Roşiori Nord,10445,44.12381,24.979366
Roşu Hm.,54867,47.3535,25.304516
Rudna h.,17194,45.503433,21.003689
Ruginoasa Hm.,62890,47.240852,26.843782
Rupea,31047,46.01788,25.278582
Rus h.,41315,47.28461,23.592722
Ruse,09711,43.85712,25.976744
Rusul Bârgăului h.,42993,47.201576,24.636196
Ruşavăţu h.,52390,45.241543,26.490795
Ruşi h.,23973,45.69836,22.989098
Ruşii Munţi h.,42400,46.916172,24.845636
Ruşor h.,23844,45.53128,23.027496
Râfov h.,71542,44.89121,26.139751
Râmnicu Sărat,50433,45.379642,27.058151
Râmnicu Vâlcea,22436,45.102962,24.37257
Râmnicu Vâlcea Nord h.,22448,45.120083,24.372496
Râpa de Jos Hm.,40878,46.92317,24.78164
Râu Vadului h.,22656,45.52541,24.272572
Râureni,22400,45.061134,24.330318
Râureni h.,22395,45.039154,24.301558
Râşnov Hm.,22034,45.59475,25.457777
Râşnov h.,22046,45.588943,25.437721
Răcari Hm.,10873,44.51538,23.573862
Răchita h.,24991,45.829468,22.109535
Răcăciuni h.,50964,46.331573,27.011915
Rădaia h.,32091,46.804695,23.454062
Rădeşti h.,13435,45.071655,24.999956
Rădoieşti Hm.,10407,44.153603,25.160069
Răduleşti Hm.,14178,44.226246,25.541332
Rădăuţi,55782,47.839573,25.909988
Răpsig h.,35691,46.422546,22.02566
Răscruci h.,44032,46.900608,23.779749
Răstoaca h.,22412,45.071518,24.344748
Răstoci Hm.,41365,47.35469,23.54175
Răstoliţa Hm.,40787,46.971844,24.969027
Răsuceni h.,14221,44.06451,25.628147
Răuşeni h.,63296,47.564655,27.205105
Războieni,31774,46.414715,23.885693
Răzvad h.,33019,44.93024,25.521873
Sacosu Mic,16372,45.66485,21.426676
Sacu h.,11621,45.57356,22.111107
Sadova Hm.,54697,47.537006,25.510557
Sagna h.,62498,46.959587,27.000885
Saligny,80610,44.300972,28.066505
Saline hc.,53071,46.282642,26.60655
Salonta,35407,46.809452,21.642319
Salva,43466,47.302105,24.340672
Sanislău Hm.,45270,47.631996,22.33764
Santău h.,44472,47.515438,22.517244
Saravale h.,25804,46.05183,20.73975
Saschiz h.,57132,46.23979,24.961905
Sascut Hm.,50926,46.20801,27.108952
Satu Mare,45452,47.79629,22.894596
Satu Mare Sud,45438,47.772064,22.87014
Satu Nou Hm.,26121,45.96293,20.817116
Satu Nou Nord h.,25921,45.964504,20.820208
Satulung pe Someş Hm.,41573,47.577305,23.41603
Schitu Goleşti h.,13485,45.204494,25.002922
Scoarţa h.,23351,45.01136,23.455633
Scoreiu h.,20373,45.77156,24.53036
Scroviştea h.,30184,44.72163,26.0236
Scânteia Hm.,60775,46.923546,27.567188
Scârlenţa h.,13265,45.034393,25.42653
Scăieni h.,51982,45.01627,26.025854
Scărlăteşti h.,72273,44.94007,27.394735
Sebeş Alba,20971,45.957634,23.58003
Sebeş Glod h.,21004,45.9722,23.558025
Sebeş Olt h.,20476,45.668266,24.315836
Sebis Hm.,35720,46.36539,22.12603
Secusigiu h.,25713,46.08413,20.989658
Segarcea,14960,44.08133,23.724176
Segarcea Nord hc.,14972,44.090305,23.730062
Seini,41822,47.738113,23.284424
Seleuş h.,35574,46.34422,21.70002
Semenic Hm.,16310,45.706276,21.235518
Semlac h.,25529,46.116104,20.92599
Sfântu Gheorghe,40139,45.866856,25.811068
Sfântu Mina h.,56164,47.209366,26.42593
Sfântu Nicolae h.,33904,46.23254,24.04619
Sfântu h.,41016,47.131123,24.303535
Sibiel h.,20799,45.765522,23.940908
Sibiu,20658,45.799767,24.162294
Sibiu Gr. Şelimbăr Hm.,20567,45.7692,24.19992
Sibiu Triaj,20622,45.78376,24.183441
Sibiu h.(203),20713,45.811153,24.148314
Siculeni,40402,46.431236,25.774124
Sighetu Marmaţiei,43820,47.93552,23.885952
Sighişoara,31217,46.226585,24.795774
Sihlea Hm.,50495,45.50388,27.112976
Silhoasa Hm.,54958,47.348312,25.011139
Siliştea Crucii h.,15029,44.031925,23.4683
Simbrea Hm.,53241,46.48934,26.216927
Simeria,21236,45.846558,23.014366
Simeria Triaj.,24082,45.8288,23.01245
Simeria Veche h.,21212,45.837704,23.054201
Simion h.,45127,47.484188,22.090218
Sinaia,30524,45.35248,25.55278
Sinaia Sud h.,30512,45.333755,25.559526
Sineşti Hm.,12819,44.465862,24.672737
Sinia PO,15720,45.684834,21.717245
Sinteşti h.,13899,44.304325,26.130548
Siretu Bacău h.,51009,46.443455,26.93435
Slatina,12895,44.42372,24.387236
Slatina Timiş,11463,45.249928,22.303337
Slobozia Sud Hm.,82101,44.524715,27.371305
Slobozia Veche,82072,44.56793,27.34829
Slănic,33368,45.231792,25.938725
Slătioara Hm.,12924,44.382423,24.333735
Slăviteşti h.,22345,44.930466,24.232456
Socola,61016,47.139614,27.612556
Soloneţ h.,55263,47.667004,26.00836
Someş Odorhei Hm.,41468,47.331753,23.270021
Spicu,72314,44.815006,27.51205
Spineni h.,13007,44.35386,24.075403
Spinoasa h.,63002,47.254963,27.184376
Stamora Germană P.O,16633,45.282448,21.254698
Stamora Moravita,16645,45.273293,21.255045
Stana Hm.,32223,46.872955,23.146982
Stejaru h.,53875,46.91538,26.176296
Stoeneşti h.,10548,44.1207,24.494467
Stolniceni h.,51308,47.200527,26.749924
Stolnici Hm.,12766,44.5493,24.781256
Strehaia,10976,44.61088,23.220541
Strehaia hc.,10988,44.615936,23.193808
Strejeşti,22216,44.55829,24.259676
Stroieşti,54465,47.615955,26.112991
Strâmba h.,55043,47.30446,24.667753
Strâmbuţa Hm.,23569,45.35568,23.38235
Studina h.,14788,43.939358,24.424122
Studiniţa h.,14776,43.975433,24.432552
Stupini Hm.,30835,45.699715,25.5953
Stâlpeni Hm.,13423,45.030937,24.968302
Stâna de Vale h.,32376,46.928085,22.648376
Stânceni Hm.,40701,46.954567,25.240404
Stânceni Neagra h.,40725,46.96651,25.154219
Stânceni h.,40713,46.966473,25.19195
Stăneşti Hm.,14283,43.94985,25.841185
Stăniţa h.,62527,46.990337,27.096392
Subcetate,23894,45.594902,22.99222
Subcetate Mureş Hm.,40634,46.862766,25.440376
Suceag h.,32106,46.80006,23.478304
Suceava,51607,47.667908,26.27465
Suceava Nord,51645,47.676376,26.239332
Suceava Vest,54439,47.64775,26.223396
Suhuleţ h.,62589,46.86237,27.223175
Suplacu de Barcău,44628,47.26181,22.54835
Supur Haltă h.,44379,47.465652,22.7944
Supur h.,44367,47.452602,22.785868
Surduc Sălaj Hm.,41418,47.248657,23.339493
Susani Bega h.,25036,45.80861,21.99942
Suseni h.,12704,44.704323,24.892387
Susenii Bârgăului Hm.,43026,47.217587,24.715508
Sânandrei Hm.,25309,45.848896,21.149368
Sâncel h.,33875,46.200146,23.9358
Sâncrăieni Hm.,40347,46.310658,25.857277
Sândominic h.,40529,46.601177,25.751925
Sânger Tăureni h.,43351,46.549156,24.12219
Sângiorgiu Nou h.,43179,46.96448,24.36398
Sânmihai h.,17106,45.69016,21.105944
Sânmihaiu de Câmpie h.,43181,46.89389,24.339453
Sânnicolau Mare Hm.,26195,46.054234,20.64158
Sânnicolau Nord h.,26212,46.08186,20.623367
Sânpaul Hm.,42711,46.447765,24.34007
Sânpetru German h.,25696,46.101288,21.050058
Sânpetru h.,25787,46.037785,20.814846
Sânsimion Hm.,40311,46.266037,25.885063
Sântana,35184,46.3335,21.495987
Sântimbru Ciuc h.,40335,46.28786,25.874483
Sântimbru Hm.,22981,46.12648,23.632053
Sântimbru h.,22967,46.13623,23.652073
Sântoma h.,25476,46.184765,21.182125
Sântămaria h.,33485,46.280296,25.006353
Sânzieni h.,42280,46.045734,26.144657
Sârca Hm.,62814,47.21494,27.151884
Săbişa h.,41808,47.726215,23.325283
Săbolciu h.,32572,47.054897,22.140327
Săbăoani Hm.,51231,47.00386,26.886866
Săbăreni,12326,44.53165,25.934742
Săcel PO,43571,47.633083,24.46168
Săcelu Sibiului h.,20804,45.787624,23.942755
Săcuieni Bihor,45086,47.360252,22.07788
Săcuieni Roman Hm.,51140,46.84687,26.88005
Săcuieni h.,33007,44.92415,25.571877
Săcuienii Noi h.,33473,46.258068,24.971401
Săcădat h.,32584,47.05088,22.11081
Săcălaz h.,11956,45.767727,21.105164
Săcăşeni h.,44434,47.5134,22.646158
Sădălbagiu h.,44654,47.30483,22.460155
Săhăteni Hm.,50237,45.0299,26.51745
Sălcuţa Hm.,14946,44.166443,23.709772
Sălişte Hm.,20816,45.807247,23.90029
Sărata Colun h.,20385,45.763134,24.502348
Sărata h.,42929,47.080772,24.428988
Sărdăneşti h.,18019,44.761986,23.363882
Sărmaş Runc h.,40646,46.88581,25.439816
Sărmaşel hcv.,43246,46.78064,24.204273
Sărmaşu h.,43260,46.748787,24.15124
Sărmăşag,44329,47.3426,22.8291
Sărmăşag h.,44343,47.367176,22.80727
Sărmăşel Gaz Metan h.,43258,46.7533,24.157911
Săruleşti,80218,44.44529,26.656178
Sărăţel,40971,47.060745,24.40362
Sărăţeni Ialomiţa h.,71748,44.64194,26.931183
Sărăţuica Hm.,71712,44.63915,26.902029
Sătmărel h.,45397,47.742634,22.796877
Săuleşti h.,21250,45.862156,22.967382
Săvineşti h.,53760,46.865757,26.4697
Săvârşin,21559,46.008015,22.232216
TEIŞ Hm.,13215,44.940666,25.443748
Tabanu h.,13980,44.026836,26.015396
Tapia Hm.,11671,45.6503,21.967205
Tarcău Neamţ Hm.,53887,46.893684,26.147146
Tarcău h.,53356,46.567142,25.974335
Tecuci,60309,45.835274,27.423227
Tecuci Nord h.(600),60335,45.84572,27.411613
Teiuş,31645,46.203606,23.691359
Teişani Hm.,52118,45.23643,26.02468
Telciu Hm.,43507,47.42146,24.394932
Telechiu Hm.,32534,47.046764,22.26746
Teliu h.,42022,45.694183,25.853792
Teregova Hm.,11425,45.15489,22.305248
Termo Turceni h.,10885,44.66393,23.39938
Tibiscu h.,11580,45.45631,22.183681
Tileagd,32558,47.053696,22.210289
Tilişca h.,20842,45.824745,23.846935
Timişeni Hm.,15940,45.652393,21.1804
Timişeşti PO.,56138,47.244167,26.540117
Timişoara C.E.T.,15938,45.698555,21.200184
Timişoara Est,11877,45.769245,21.249966
Timişoara Nord,11906,45.75023,21.203318
Timişoara Sud,15914,45.71536,21.203386
Timişoara Vest Hm.,17053,45.724434,21.16897
Timişu de Jos h.,30653,45.58538,25.623041
Timişu de Sus Hm.,30641,45.5475,25.587872
Tiream h.,44496,47.607067,22.483908
Tisa h.,43791,47.939926,23.950655
Titan Sud Hm.,81664,44.425438,26.225216
Titu,12431,44.66199,25.57012
Todireni Hm.,63325,47.597958,27.152937
Todireşti h.,55251,47.69247,26.04275
Tohanu Vechi h.,22060,45.57569,25.37667
Tomeşti h.,40505,46.548195,25.780762
Tomnaticu h.,26171,45.99204,20.67195
Tomşani hc.,50172,44.95625,26.294277
Topile h.,56114,47.275745,26.670826
Topleţ Hm.,11281,44.806732,22.385065
Topliţa,40684,46.924015,25.342976
Topolovăţ,11774,45.768444,21.629223
Toporaş h.,13033,44.336636,23.967096
Toporu,14233,44.03351,25.655994
Traian Sat Hm.,70627,45.186993,27.7319
Traian Vuia h.,25024,45.8126,22.024529
Trainica h.,13277,45.04789,25.437258
Trestieni h.,71554,44.872257,26.178017
Trotuş h.,53033,46.26991,26.70609
Truşeşti Hm.,63387,47.765335,27.00425
Tudor Vladimirescu h.,61470,45.567066,27.64116
Tulcea Mărfuri,83193,45.169056,28.766117
Tulcea Oraş,83222,45.1824,28.790789
Tunel Hm.,31918,46.732258,23.813951
Turburea Hm.,23210,44.71466,23.511621
Turceni,10938,44.677364,23.388067
Turdaş h.,21200,45.836422,23.106487
Turnişor Hm.,20749,45.801163,24.130274
Turnu Roşu hc.,22694,45.64319,24.295677
Tutova Hm.,60452,46.110207,27.554344
Tuzla h.,81107,44.008247,28.642906
Tuşnad Sat,40270,46.190304,25.893347
Tâmna,11023,44.59128,23.038471
Tânganu h.,81731,44.39376,26.320833
Târgovişte,13198,44.916122,25.45545
Târgovişte Nord,33033,44.94775,25.462595
Târgu Bujor,61884,45.86702,27.923252
Târgu Frumos,62840,47.20503,27.012684
Târgu Jiu,23428,45.03186,23.280928
Târgu Mureş,42606,46.53382,24.54914
Târgu Mureş Nord Hm.,42577,46.553955,24.562635
Târgu Mureş Sud,42644,46.505936,24.495543
Târgu Neamţ Hm.,56152,47.199745,26.360464
Târgu Ocna Hm.,53069,46.279224,26.626348
Târgu Secuiesc,42266,45.991833,26.137619
Târguşor Bihor h.,44771,47.37563,22.169031
Târguşor Dobrogea Hm.,82890,44.46473,28.439987
Târgşoru Nou Hm.,32900,44.91911,25.857315
Târnava h.,31372,46.13386,24.299242
Târnavele Hm.,14192,44.158566,25.546967
Târnova Zarand Hm.,35598,46.339825,21.79144
Târnăveni,34001,46.328438,24.298922
Târnăveni Vest h.,33978,46.324223,24.269102
Tăbărăşti Sud h.,72156,45.06912,26.930698
Tăbărăşti h.,72144,45.081364,26.90489
Tălagiu h.,35885,46.27749,22.480028
Tălmaciu Hm.,20517,45.670074,24.266125
Tălăşmani h.,61963,46.132126,27.841051
Tămand h.,35665,46.443943,21.917875
Tămaşda h.,35299,46.656864,21.554153
Tămăşeu h.,45000,47.220406,21.91327
Tărtăria h.,21066,45.94817,23.410952
Tătărani h.,22369,44.983566,24.245972
Tăureni h.,43337,46.58295,24.092468
Tăutu Ampoiului h.,27046,46.09669,23.468086
Tăşnad,44458,47.49567,22.578093
Ucea,20311,45.792652,24.67802
Uilacu Şimleului h.,44537,47.27722,22.758924
Uliuc h.,16358,45.68033,21.366674
Ulmeni,50263,45.08138,26.651012
Ulmeni Sălaj,41523,47.462303,23.299232
Umbrăreşti Sat h.,61872,45.84898,27.920895
Umbrăreşti h.,61559,45.723866,27.492384
Ungheni,936,47.199947,27.786978
Ungheni Prut Hm.,61092,47.200386,27.784788
Ungureni Hm.,63430,47.88504,26.796658
Unguriu h.,52338,45.283188,26.619108
Unirea Hm.,31748,46.391106,23.804838
Unirea hc.,31750,46.399673,23.839146
Urecheşti Hm.,52857,46.131817,27.090755
Urleasca Hm.,70603,45.167988,27.621105
Urseni h.,16334,45.69626,21.308575
Urzica Mare h.,15005,44.030506,23.606043
Urziceni,70237,44.719505,26.644665
Utuşoiu h.,53382,46.539204,25.923649
Utvin h.,17091,45.705147,21.127148
Utviniş h.,35122,46.2667,21.363796
Utvinişu Nou,35110,46.23889,21.35459
Vadu Crişului Hm.,32431,46.994728,22.495838
Vadu Crişului h.,32455,46.977966,22.50845
Vadu Lat Hm.,10249,44.34274,25.702543
Vadu Roşu h.,30902,45.873817,25.544584
Vaduri h.,53851,46.93507,26.257719
Valea Albă Hm.,11097,44.60163,22.794237
Valea Cernei Hm.,11267,44.766953,22.390963
Valea Călugărească Hm,50122,44.952015,26.166227
Valea Drăganului h.,32314,46.93475,22.844675
Valea Florilor Hm.,31877,46.66484,23.860771
Valea Fratelui h.,22668,45.547844,24.269579
Valea Homorod h.,20103,45.75185,25.31209
Valea Largă Hm.,30500,45.30936,25.567957
Valea Lungă Hm.,31451,46.118397,24.036306
Valea Mureşului h.,21602,46.030773,22.088255
Valea Mărului Hm.,22670,45.602154,24.26505
Valea Putnei P.M.,54726,47.489388,25.384956
Valea Păltinişului h.,15574,45.449223,22.15352
Valea Roşie h.,81822,44.16975,26.615404
Valea Sadului Hm.,23507,45.183018,23.384888
Valea Seacă,51011,46.476357,26.935278
Valea Seacă h.,52467,45.27433,26.358479
Valea Sibiciului h.,52481,45.350334,26.34811
Valea Strâmbă h.,40555,46.689278,25.586124
Valea Teliului h.,42034,45.68648,25.887856
Valea Timişului Hm.,11504,45.354362,22.253992
Valea Uzului Haltă h.,53124,46.37091,26.50069
Valea Uzului Hm.,53150,46.38035,26.49277
Valea Viilor Hm.,25402,46.098667,21.311432
Valea Vişeului,43703,47.9147,24.154589
Valea Voievozilor h.,13186,44.938103,25.492987
Valea lui Mihai,45153,47.527657,22.132772
Valeadeni h.,15615,45.421104,22.034107
Valul lui Traian Hm.,80775,44.163315,28.507925
Vama,54609,47.552544,25.677483
Vameş h.,61456,45.53424,27.701572
Var h.,41420,47.237816,23.299643
Variaş h.,25919,46.01591,20.966251
Vasilaţi h.,81781,44.285603,26.442913
Vasile Alecsandri h.,61418,45.45106,27.796999
Vasiova,16126,45.380527,21.759974
Vaslui,60658,46.626907,27.72676
Vatra Dornei,54817,47.35224,25.357746
Vatra Dornei Băi hc.,54843,47.346645,25.358185
Vaţa h.,35952,46.184093,22.599743
Vereşti,51530,47.607784,26.441032
Vermeş h.,43155,47.002052,24.319744
Verneşti h.,52261,45.204678,26.73204
Veşeud h.,33784,45.99062,24.146627
Veştem h.,20531,45.72227,24.227121
Veţel h.,21341,45.90713,22.802944
Viaductu Cârcea h.,10720,44.26665,23.88966
Vicov h.,55835,47.904926,25.740442
Vicovu de Jos h.,55847,47.903873,25.726343
Vicovu de Sus h.,55859,47.909748,25.693705
Videle,10287,44.28417,25.537262
Vidin Patnicheska,123,43.974564,22.85195
Vidra Hm.,13904,44.28053,26.146751
Vidrasău h.,42694,46.472565,24.414228
Viile Giarmata h.,25103,45.800587,21.292877
Viişoara h,53045,46.274963,26.670273
Viişoara h.,42943,47.10173,24.452679
Vinga Hm.,25361,46.016624,21.199387
Vinţu de Jos,21028,45.988514,23.496546
Vipereşti h.,52405,45.23121,26.454067
Vizireni h.,72223,45.0669,27.192106
Vişeu Bistra h.,43686,47.864197,24.191887
Vişeu de Jos,43612,47.66158,24.374475
Vişina Veche h.,14817,43.865288,24.441517
Vişina h.,14805,43.886436,24.43574
Viştea h.,20309,45.798134,24.714708
Vlad Ţepeş h.,13942,44.13812,26.124474
Vlaşca Hm.,14219,44.09617,25.585243
Vlădeni,63222,47.4064,27.324263
Vlădeni Ardeal,20086,45.76368,25.37381
Vlădeşti h.,33370,45.174084,25.975924
Vlăduleni,14697,44.254875,24.324165
Vlăduleni Gorj h.,18095,44.885464,23.233234
Voetin h.,50471,45.442383,27.095901
Voila Hm.,20270,45.819355,24.833422
Voiteni,16009,45.475475,21.223248
Vorniceni h.,63466,47.92267,26.656176
Voşlăbeni Hm.,40531,46.627136,25.641762
Vrabia h.,40294,46.216892,25.88902
Vulcana Pandele P.M.Aj.,13253,45.01638,25.40896
Vulpăşeşti h.,62515,46.986526,27.058794
Vânători,31164,46.243572,24.919052
Vârciorova Hm.,11205,44.707596,22.490747
Vârfurile Hm.,35897,46.291615,22.520529
Vârteju,12235,44.368725,26.014778
Vârtoapele hc.,10380,44.174084,25.233376
Vârţ h.,24563,44.943966,23.136768
Văcăreşti h.,13174,44.856068,25.50008
Vădeni Hm.,70782,45.364063,27.919998
Vălcani hcv.,25830,45.991848,20.405033
Văleni Meteş h.,27058,46.09206,23.420704
Vălenii de Munte,52077,45.17961,26.034325
Vălişoara Hm.,11487,45.305286,22.2823
Văratec Hm.,51554,47.631413,26.35902
Vărbilău h.,33344,45.18553,25.955385
Vărădia Hm.,21597,46.01654,22.133333
Vărădia h.,21573,46.001823,22.157864
Zagna Vădeni h.,70794,45.37974,27.962263
Zalău Nord,44240,47.221035,23.040903
Zam Hm.,21482,46.00152,22.440523
Zau de Câmpie h.,43325,46.61328,24.125027
Zebil h.,83129,44.96489,28.719482
Zece Prăjini h.,62618,46.942783,27.174126
Zerind Hm.,35287,46.59357,21.545235
Zigoneni h.,13655,45.090313,24.674122
Zimandu Nou h.,35146,46.282803,21.396212
Zlatna Tehnică,27096,46.089348,23.262224
Zlatna h.,27113,46.10469,23.239153
Zlatna hcv.,27101,46.108414,23.22955
Zlătunoaia h.,63363,47.6941,27.056692
Zlătărei Hm.,22230,44.60624,24.259651
Zoita Hm.,50419,45.28565,27.012
Zorile h.,10225,44.360107,25.762152
Zorleni Hm.,60517,46.266975,27.726414
Zăbala h.,42216,45.891663,26.163113
Zădăreni Hm.,25646,46.12943,21.221626
Zăgujeni Hm.,11592,45.480656,22.16772
Zăneşti Neamţ h.,53734,46.822216,26.548628
Zănoaga Hm.,71566,44.86267,26.203915
Zărneşti,22096,45.562637,25.328283
Zăvestreni Hm.,10263,44.302837,25.592478
Zăvideni Hm.,22280,44.754215,24.24856
Întorsura Buzăului Hm,42058,45.675343,26.02796
Şag Hm.,25385,46.058754,21.27036
Şandra h.,26107,45.919247,20.896889
Şard Ighiu h.,27034,46.12238,23.521603
Şeica Mare,33801,46.03404,24.163027
Şeica Mare h.,33796,46.02229,24.157623
Şeica Mică h.,57118,46.108974,24.169386
Şeitin h.,25543,46.117813,20.841902
Şendreni Hm.,61339,45.410343,27.922844
Şerbeşti Bacău h.,51102,46.696648,26.88768
Şerbeştii Vechi h.,61341,45.422207,27.87723
Şerbăneşti h.,61509,45.61423,27.551872
Şercaia Hm.,20165,45.816086,25.149618
Şercaia h.,20177,45.825283,25.142384
Şeuca h.,57182,46.335815,24.334917
Şeţu h.,52508,45.38132,26.323053
Şibot Hm.,21092,45.92952,23.331364
Şieu Hm.,40921,47.004517,24.604803
Şieuţ h.,40907,46.978638,24.645979
Şilindru Hm.,45103,47.435814,22.047895
Şimand Hm.,35213,46.42344,21.47156
Şimleu Silvaniei,44563,47.250412,22.770008
Şintereag Hm.,41030,47.17716,24.270494
Şiria Hm.,35536,46.283344,21.63646
Şişcani h.,50902,46.15533,27.15311
Şofronea,21901,46.277508,21.314947
Şoimuş h.,34099,46.396847,24.591864
Şoldana h.,63258,47.4831,27.299986
Şoldanu h.,81808,44.232822,26.516836
Şona h.,33899,46.222237,24.010221
Şopârliţa h.,14685,44.272102,24.29989
Ştefan Vodă h.,82163,44.32611,27.328264
Ştefan cel Mare h.,80438,44.421715,27.638483
Şugău h.,40567,46.645397,25.617765
Şuncuiuş Hm.,32405,46.949055,22.537628
Şuştra h.,11786,45.776405,21.582111
Ţagu Sat h.,43222,46.82006,24.226908
Ţagu h.,43210,46.841377,24.237068
Ţebea h.,36009,46.171303,22.73659
Ţepeş Vodă h.,13320,45.149242,25.447857
Ţeţchea h.,32522,47.042812,22.318121
Ţibeni h.,51724,47.82145,26.02589
Ţicău h.,41511,47.44443,23.303303
Ţigău h.,43131,47.058235,24.324104
Ţufalău h.,42163,45.83463,26.03543
Ţânţăreni Hm.,23167,44.597763,23.50488
Ţăgşor h.,57156,46.79622,24.213202
Ţăndărei,71889,44.647057,27.648678
Ţărţăl h.,10653,44.179237,24.092361
